parent_station,stop_lon,stop_id,stop_name,stop_lat,location_type
,38.7525538,node/847244293,Beherawi Theatre,9.0165395,0
,38.7521415,node/847244423,Black Lion,9.0209237,0
,38.7632408,node/4832025024,4 Kilo,9.0344007,0
,38.8158571,node/4884374622,Lamberet Terminal (Bus),9.0223057,0
,38.738182,node/5248250425,Sar Bet (Roundabout),8.9929728,0
,38.7553162,node/5330678521,Ambassador,9.0164409,0
,38.7570321,node/5736089088,Stadium,9.0120276,0
,38.7146778,node/6251054285,Mebrathail,9.0295451,0
,38.6928185,node/6307600909,Asko,9.0654733,0
,38.7718334,node/6373574986,Bole Printing Press,8.9976331,0
,38.8053365,node/6798927886,Kebede Wessene Rd.,8.9986049,0
,38.7444332,node/6814022390,Mexico,9.0094665,0
,38.7438796,node/6967142984,Mebrat Condominium,8.9644773,0
,38.7486643,node/6967165728,Mebrat,8.9673396,0
,38.7491221,node/6967179322,Gofa Gebriel,8.9771232,0
,38.7498599,node/6967179323,Kera (Gofa Road),8.9825519,0
,38.7516602,node/6967225474,Tewodros Square,9.0277111,0
,38.732897,node/6967234177,German Square,8.9655968,0
,38.7859995,node/6967281153,Friendship Building,8.9899905,0
,38.7512565,node/6967281241,Piassa (Downtown Cafe),9.0319356,0
,38.7526242,node/6967281242,Piassa Arada (2),9.0330123,0
,38.6217166,node/6967318740,Gojo,9.0418236,0
,38.8026673,node/7022361366,Megenagna Terminal,9.0203188,0
,38.7897496,node/7022397409,Bole Millenium,8.9885373,0
,38.789886,node/7022397410,Bole Millenium,8.9887535,0
,38.8267584,node/7022397411,Goro School,8.9937973,0
,38.8569749,node/7022397413,Summit Condominiums,8.9842709,0
,38.8570885,node/7022397414,Summit Condominiums,8.9842404,0
,38.8906061,node/7022397416,Bole Arabsa,8.9720161,0
,38.8903477,node/7022397417,Bole Arabsa,8.9732168,0
,38.8785328,node/7022397418,Aba Kiros Roundabout,9.0561234,0
,38.875565,node/7022397420,Yeka Abado,9.0689298,0
,38.8756232,node/7022397421,Yeka Abado,9.0688377,0
,38.7893816,node/7037142410,Gurara,9.0626023,0
,38.7757967,node/7037142414,Abuare Roundabout,9.026427,0
,38.7759255,node/7037142415,Abuare Roundabout,9.026504,0
,38.8000289,node/7037142417,Marathon Motor (Megenagna),9.0224201,0
,38.7836264,node/7037142419,Yeha,9.060739,0
,38.7839285,node/7037142420,Tena Tabya,9.0608445,0
,38.7811505,node/7037142421,Biret Dildiy (Bono Wuha),9.0598571,0
,38.7810894,node/7037142422,Bret Dildy (Bono Wuha),9.0599927,0
,38.7797667,node/7037142423,Atlas,9.0042786,0
,38.7860596,node/7037142424,Bole Medhanialem,8.9983386,0
,38.7862428,node/7037142426,Bole Medhanialem,8.9984556,0
,38.800549,node/7037142427,24,9.0098865,0
,38.7866932,node/7037142428,Dinberwa Hospital,9.0221273,0
,38.7802113,node/7037142430,Kokebe Tsebah School,9.0345238,0
,38.7799476,node/7037142431,Kokebe Tsebah School,9.034441,0
,38.7839469,node/7037142433,Belgium Embassy,9.031876,0
,38.784892,node/7037142434,British Embassy,9.0311083,0
,38.7855544,node/7037142435,British Embassy,9.0309087,0
,38.7887162,node/7037142436,Abebe Sook,9.0287538,0
,38.7952986,node/7037142438,Shola Gebeya,9.0250779,0
,38.7961373,node/7037142439,Yeka Michael,9.0244101,0
,38.8021491,node/7037142441,Megenagna,9.0180934,0
,38.8017521,node/7037142442,Megenagna,9.0182711,0
,38.7818835,node/7037142443,Derartu,8.8869301,0
,38.7838224,node/7037142444,Gelan Condominium,8.8857405,0
,38.785591,node/7037142445,08 Adarash,8.8844269,0
,38.7865253,node/7037142446,Meshuwalekia Akaki,8.8767985,0
,38.7887478,node/7037142448,Akaki Beretaberet,8.8738843,0
,38.8207065,node/7037142450,G7 (Tulu Dimtu),8.870907,0
,38.8042339,node/7037142454,Tulu Dimtu Unisa,8.8552763,0
,38.8041524,node/7037142455,Tulu Dimtu,8.8556159,0
,38.7961539,node/7037142456,Akaki Korkoro,8.8597556,0
,38.8051915,node/7037142459,Tulu Dimtu (Taf Gas Station),8.8688691,0
,38.8136608,node/7037142460,Arsema,8.8722685,0
,38.8140262,node/7037142461,Selam Sefer (Tapela Gar),8.8722281,0
,38.8201689,node/7037142462,Tulu Dimtu Adebabay,8.8747821,0
,38.8218482,node/7037142464,Project 12 Akababi,8.8658608,0
,38.8148895,node/7037142465,Mahiber Betoch,8.8592154,0
,38.7912061,node/7037142466,Bole Dildiy,8.9869933,0
,38.8000136,node/7037142467,Megenagna / Zefmesh,9.02034,0
,38.8010735,node/7037142469,Megenagna,9.0213214,0
,38.8015921,node/7037142470,Megenagna,9.0217137,0
,38.8100422,node/7037142471,Abysinia Cafe Area,9.0215363,0
,38.810853,node/7037142472,Abysinia Cafe Area,9.0213396,0
,38.8132781,node/7037142474,Century Mall,9.0196778,0
,38.8215105,node/7037142475,Gurd-shola,9.0187352,0
,38.8192066,node/7037142476,Menaheria,9.0239816,0
,38.8192354,node/7037142477,Menaheria,9.0238758,0
,38.814876,node/7037142479,Gerji Mebrat Haile,9.003632,0
,38.8132574,node/7037142483,Gerji Mebrat Haile,9.0037638,0
,38.8251916,node/7037142484,Lamberet,9.0253421,0
,38.8271787,node/7037183485,Lamberet Area,9.0258842,0
,38.8273076,node/7037183486,Lamberet Area,9.0260507,0
,38.8271189,node/7037183487,Lamberet Area,9.0259969,0
,38.8294063,node/7037183490,Yerer Goro,8.9913503,0
,38.8292171,node/7037183491,Yerer Goro,8.9913222,0
,38.8265756,node/7037183492,Se'alite Mihret Church,9.020263,0
,38.82686,node/7037183493,Management Institute,9.0203852,0
,38.8273219,node/7037183494,Sealite Mihret,9.0203048,0
,38.8342032,node/7037183495,Civil Service College,9.0216167,0
,38.8414217,node/7037183496,St. Michael,9.021312,0
,38.8425033,node/7037183497,St. Micheal Church,9.0215489,0
,38.8331954,node/7037183498,Salite Mihret,9.0283709,0
,38.8333256,node/7037183499,Hillside (Ethio-China Mebrathaile),9.0285264,0
,38.838592,node/7037183501,Wessen Michael,9.030459,0
,38.8316144,node/7037183502,Hanna Mariam,9.0375551,0
,38.8316246,node/7037183503,Hanna Mariam,9.0375969,0
,38.8442968,node/7037183504,Wessen,9.0330948,0
,38.8445812,node/7037183505,Wessen,9.033228,0
,38.8446898,node/7037183507,Wessen (Mariam),9.0330982,0
,38.8466963,node/7037183508,Kotebe Teachers College,9.0342084,0
,38.8533863,node/7037183509,Yabem Hotel,9.0357649,0
,38.8545188,node/7037183510,Kotebe Gebriel,9.036101,0
,38.8526027,node/7037183513,Yetebaberut,9.0201901,0
,38.8539074,node/7037183515,Yetebaberut,9.0207031,0
,38.8603565,node/7037183516,Meri,9.0207092,0
,38.8610727,node/7037183518,Meri (Yetebaberut),9.0205124,0
,38.8686047,node/7037183519,Ayat,9.0208331,0
,38.8678248,node/7037183520,Ayat Zone 2,9.0210633,0
,38.8606002,node/7037183521,Kara (Turn),9.0379427,0
,38.8640163,node/7037183523,Medhanalem Church,9.0401552,0
,38.852259,node/7037183525,Safari,9.0106828,0
,38.8520658,node/7037183527,Summit (MOHA),9.0043876,0
,38.8513132,node/7037183528,Saint Georgis,8.9955228,0
,38.860685,node/7037183529,Tena Tabeya,8.9941038,0
,38.8582866,node/7037183532,Gate 2,8.9894728,0
,38.8544474,node/7037183533,Summit Condominiums,8.9846055,0
,38.8719812,node/7037183535,Ayat Train Station,9.0213287,0
,38.872594,node/7037183536,CMC,9.0211208,0
,38.8767684,node/7037183537,Ayat Square,9.0212396,0
,38.8862575,node/7037183538,Feres Bet,9.0216916,0
,38.8946069,node/7037183539,Police Tabia,9.0170704,0
,38.891209,node/7037183540,Tsebel,9.0222555,0
,38.8902931,node/7037183541,Bono Meskid,9.0219034,0
,38.8946677,node/7037183542,Ayat Chefe Condominium,9.0113906,0
,38.8944878,node/7037183543,Ayat Chefe Condominium,9.0109368,0
,38.8767662,node/7037183545,Nebu Mikael,9.0023517,0
,38.8851706,node/7037183546,Ayat Adebabay Hulet (2),8.9965746,0
,38.8855436,node/7037183547,Bole Arabsa (3),8.9963324,0
,38.8851362,node/7037183548,Bole Arabsa (2),8.9841602,0
,38.8902717,node/7037183550,Bole Arabsa,8.9733148,0
,38.877919,node/7037183552,Yeka Condominium 1,9.0354891,0
,38.8777819,node/7037183554,Tafo Gebrael,9.0381306,0
,38.8779667,node/7037183555,Tafo Condominium 1,9.0505157,0
,38.8773973,node/7037183557,Tafo Mebrathail,9.0425957,0
,38.877866,node/7037183558,Tafo Mebrathail,9.0427743,0
,38.8779122,node/7037183559,Tafo Condominium 2,9.0465834,0
,38.8705589,node/7037183562,Kara Condominium,9.0501511,0
,38.8647703,node/7037183563,Yeka Abado,9.0666282,0
,38.8737753,node/7037183565,Sara Ampol (Gedera),9.0571811,0
,38.8742538,node/7037183567,Sara Ampol,9.0580264,0
,38.8812971,node/7037183569,Aba Kiros,9.0606875,0
,38.8841651,node/7037183570,Makefafeya,9.0630654,0
,38.8892044,node/7037183571,Gari Tera,9.0670494,0
,38.8938058,node/7037183572,CCD,9.0707009,0
,38.8952147,node/7037183573,140,9.0718221,0
,38.9074861,node/7037183574,Legedadi Mission,9.0818058,0
,38.90832,node/7037183575,Legedadi Mission,9.0821737,0
,38.7771574,node/7041052894,Selam Building,8.8832831,0
,38.7768265,node/7041052895,Gojo Hotel,8.8910809,0
,38.7717989,node/7041052896,Kality Meneharia,8.8958584,0
,38.7668359,node/7041052897,Cheralia Factory,8.9029458,0
,38.7667452,node/7041052898,Cheralia Factory,8.9029223,0
,38.7638335,node/7041052900,Kality Gebriel,8.9113422,0
,38.7633399,node/7041052901,Kality Prison,8.912466,0
,38.7416641,node/7041052912,Hana Maryam,8.928137,0
,38.6590102,node/7041052914,Tabelew,8.9274906,0
,38.6548173,node/7041052915,Ubedi Academy,8.9244259,0
,38.6526472,node/7041052916,Alem Gena,8.9230001,0
,38.652656,node/7041052917,Alem Gena,8.9229882,0
,38.6465912,node/7041052918,Mama,8.9213858,0
,38.73129,node/7041052927,Mekanisa (Old Revenues Office),8.9683942,0
,38.7327236,node/7041052928,German Square,8.9656974,0
,38.7324437,node/7041052932,Gebriel Bridge,8.9556239,0
,38.7327233,node/7041052934,Gebriel Bridge,8.955596,0
,38.7339608,node/7041052935,Mebrathile (EEPCo),8.9469471,0
,38.7341955,node/7041052936,Mekanisa School,8.9790248,0
,38.7339384,node/7041052937,Abo,8.9785916,0
,38.7246092,node/7041052938,Sheged Hotel,8.973373,0
,38.720836,node/7041052939,Jemo Michael,8.9673959,0
,38.7209392,node/7041052940,Jemo Michael,8.966996,0
,38.7152564,node/7041052942,Jemo YBP (All Mart),8.9614893,0
,38.7123763,node/7041052944,Jemmo 1,8.9606358,0
,38.7124284,node/7041052945,Jemmo 1,8.9604074,0
,38.7084697,node/7041052946,Mestawet Fabrica,8.9595125,0
,38.7059934,node/7041052948,Mestawet Fabrica,8.958513,0
,38.6992718,node/7041052949,Jemo 3,8.9564,0
,38.6985348,node/7041052950,Jemmo 3,8.9556244,0
,38.7077567,node/7041052951,Zenebework,8.9866742,0
,38.6713097,node/7041052952,Welete Maryam,8.9611777,0
,38.7272059,node/7041052953,Mickael Bridge,8.9657858,0
,38.689429,node/7041052954,Gerar,8.9813447,0
,38.6851955,node/7041052955,Repi (Gerar),8.9794179,0
,38.7220154,node/7041052957,Gebre Kirstos,8.9773403,0
,38.7228933,node/7041052958,Bisrate Gebrael,8.9884304,0
,38.7488548,node/7041052959,Gofa Gebriel (2),8.9753751,0
,38.7490217,node/7041052960,Gofa Gebriel,8.9771139,0
,38.7772221,node/7041052963,Bole Mickael,8.9816131,0
,38.7560783,node/7041052965,MOHA (Pepsi Factory),8.9822682,0
,38.7600125,node/7041052969,Gotera (Oilibiya),8.9762662,0
,38.7598239,node/7041052970,Gotera (Oilibiya),8.976182,0
,38.7620577,node/7041052975,St. Joseph Church,8.9697308,0
,38.7627885,node/7041052977,kadisco Building,8.9659447,0
,38.762999,node/7041052978,kadisco Building,8.965927,0
,38.7630788,node/7041052979,Kadisco,8.9637596,0
,38.7640609,node/7041052980,Adey Abeba,8.9583017,0
,38.7638459,node/7041052982,Adey Abeba,8.9582595,0
,38.7635583,node/7041071286,Saris (CBE),8.9528662,0
,38.7633266,node/7041071287,Saris (CBE/Shoa Bakery),8.9527596,0
,38.7661044,node/7041071289,Abo Junction,8.9450003,0
,38.7663069,node/7041071290,Abo Junction,8.9450733,0
,38.763132,node/7041071291,Customs (Train Station),8.9380959,0
,38.766627,node/7041071295,Kality Maseltegna,8.9323275,0
,38.7681692,node/7041071296,Wehalemat,8.9298173,0
,38.7478244,node/7041071342,Bulgaria Mazoria,8.9950292,0
,38.7475059,node/7041071344,Begtera,8.9971703,0
,38.7394459,node/7041071347,AU (Mikael) Rounrdabout,8.9990638,0
,38.7395945,node/7041071348,AU (Mikael) Rounrdabout,8.9990569,0
,38.7478465,node/7041071350,Bulgaria,8.9937942,0
,38.7595772,node/7041071352,Global Hotel,8.9941475,0
,38.7598183,node/7041071353,Global Hotel,8.9941836,0
,38.7596352,node/7041071354,Beklo Bet (Global),8.9953383,0
,38.7584812,node/7041071355,Tele Garage,9.000141,0
,38.7586986,node/7041071356,Riche,9.0043253,0
,38.7669535,node/7041071359,6th (Raddison Blu),9.0166957,0
,38.7572645,node/7041071360,Filweha (Hotsprings),9.017718,0
,38.7570579,node/7041071362,Filweha (Hotsprings),9.0175554,0
,38.7574492,node/7041071363,Ghion Hotel (Enterance),9.0137609,0
,38.7576145,node/7041071364,Ghion Hotel (Enterance),9.0138328,0
,38.7591876,node/7041071367,St. Joseph School,9.0098008,0
,38.7592761,node/7041071370,St. Joseph School,9.0104995,0
,38.7590434,node/7041071371,Admas University College,9.0105316,0
,38.7570112,node/7041071372,Lalibela Hotel,9.0118612,0
,38.7560438,node/7041071374,Stadium,9.0121294,0
,38.7545386,node/7041071376,Legehar,9.011849,0
,38.7539285,node/7041071377,Legehar,9.0117857,0
,38.7533069,node/7041071378,Legehar (Old Train Station),9.0109604,0
,38.7461963,node/7041071380,Mexico,9.0097755,0
,38.7414166,node/7041071382,African Union,9.0031416,0
,38.7423863,node/7041071383,Popolare,9.0053059,0
,38.7466748,node/7041071384,Guenet Hotel,9.0046908,0
,38.74694,node/7041071385,Guenet Hotel,9.0032786,0
,38.7334947,node/7041071388,Abenet,9.0214263,0
,38.7345522,node/7041071389,Lideta Condominium,9.0132791,0
,38.7348248,node/7041071390,Darmar,9.0157856,0
,38.7294714,node/7041071391,Coca Cola,9.0159169,0
,38.7278809,node/7041071392,Austria Embassy,8.9939406,0
,38.727499,node/7041071393,Mechare Meda,8.9936591,0
,38.7152417,node/7041071395,3 Kutir Mazoriya (Total),8.9925902,0
,38.7184074,node/7041071397,Minaye Building,8.995414,0
,38.7191221,node/7041071399,Old Airport (Mobil),8.9998642,0
,38.7206897,node/7041071400,Tor Hailoch,9.0099949,0
,38.7100309,node/7041071401,Keranio Mewcha,9.0133411,0
,38.7159484,node/7041071402,Holand,9.0213057,0
,38.714954,node/7041071403,Meseret Edget,9.0245409,0
,38.7440603,node/7041071404,Teklehaymanot,9.0278226,0
,38.7458014,node/7041071405,Kebele 11,9.0247481,0
,38.75166,node/7041071406,Tewodros Square,9.0262634,0
,38.7517909,node/7041071407,Tewodros Square,9.0263826,0
,38.7521859,node/7041071411,Black Lion,9.0218352,0
,38.751592,node/7041071414,National Theatre,9.0158768,0
,38.7513097,node/7041071415,National Theatre,9.0156938,0
,38.7494881,node/7041071416,A.A. Commercial College,9.0139102,0
,38.7495568,node/7041071418,A.A. Commercial College,9.0138228,0
,38.7490599,node/7041071419,Buna Ena Shay,9.0114261,0
,38.7479733,node/7041071420,Buna Ena Shay,9.0105922,0
,38.7468862,node/7041071423,Mexico Shebelle Hotel,9.0119916,0
,38.7429038,node/7041071425,TVET College (Tegbare'd),9.0105894,0
,38.7426638,node/7041071429,Federal Police (Tegbare'd),9.0103865,0
,38.738603,node/7041071430,Lideta (Balcha Hospital),9.0109303,0
,38.7385604,node/7041071431,Lideta (Balcha Hospital),9.0111161,0
,38.7377815,node/7041071432,Lideta Condominium,9.011233,0
,38.733822,node/7041071433,Lideta Tsebel,9.0041706,0
,38.7338119,node/7041071434,Dessie Hotel,9.0093091,0
,38.7342297,node/7041071435,High Court,9.0108572,0
,38.733431,node/7041071437,Lideta High Court,9.0115829,0
,38.7293132,node/7041071439,Hintsa College,9.0121559,0
,38.7292339,node/7041071441,Coca Cafe,9.0119411,0
,38.7265458,node/7041071444,Mekonenoch (Golf) Club,9.011282,0
,38.7220202,node/7041071446,Tor Hailoch Junction,9.0115616,0
,38.7216866,node/7041071447,Torhailoch,9.0119442,0
,38.7206478,node/7041071448,Tor Hailoch,9.0139112,0
,38.7209168,node/7041071449,Tor Hailoch,9.013939,0
,38.7089411,node/7041071450,Keranio Bridge,9.0194506,0
,38.7049748,node/7041071451,Medhanialem,9.0175679,0
,38.7006446,node/7041071452,Keranio Adebabay,9.0176634,0
,38.6994971,node/7041071453,Kokebe,9.0180779,0
,38.6954056,node/7041071454,Yeshi Debele,9.0195382,0
,38.6957701,node/7041071455,Yeshi Debele,9.0190748,0
,38.6884518,node/7041071456,Mariam,9.0231539,0
,38.6742682,node/7041071458,Anfo Meda,9.021983,0
,38.7752596,node/7041071459,St. Urael Church,9.0110433,0
,38.766397,node/7041071461,Salcost Apartments (NOC),9.0104908,0
,38.7626376,node/7041071462,St. Estifanos Church,9.0118738,0
,38.7675809,node/7041071464,St. Gebriel,9.0199107,0
,38.7680315,node/7041071465,Zenebewerk Hotel,9.0193852,0
,38.7715231,node/7041071466,Meles Zenawi Foundation,9.0206693,0
,38.770643,node/7041071468,Azmari Bet (Traditional Music Club),9.0194316,0
,38.7702335,node/7041071469,Kazanchis (6th),9.0166401,0
,38.7638714,node/7041071471,Hilton Hotel (Apartments),9.0196382,0
,38.7772342,node/7041071473,Women Square,9.0233468,0
,38.7771738,node/7041071474,Women Square,9.0234508,0
,38.7765755,node/7041071475,Aware Bridge,9.0244322,0
,38.7633615,node/7041071479,Arat Kilo,9.0319312,0
,38.7652099,node/7041071480,Arat Kilo,9.0321438,0
,38.7728461,node/7041071481,Bel Air,9.032458,0
,38.7730493,node/7041071482,Addis View Hotel,9.0324918,0
,38.7730556,node/7041071483,Menelik II Hospital,9.0385857,0
,38.7719268,node/7041071484,Menlik Hospital,9.0388201,0
,38.7522029,node/7041071579,Piassa Arada,9.0365871,0
,38.7524445,node/7041071580,Piassa Arada,9.0363947,0
,38.7523326,node/7041071592,Piassa Arada,9.0354239,0
,38.7491242,node/7041071594,Habtegiorgis Bridge,9.0352553,0
,38.7438917,node/7041071595,Kurtu Building,9.0343899,0
,38.7437548,node/7041071596,Kurtu Building,9.0341887,0
,38.7434135,node/7041071597,Pharmacy,9.0343321,0
,38.737968,node/7041071598,Gojam Berenda,9.0343947,0
,38.7337775,node/7041071599,Autobis Tera (3),9.0342308,0
,38.7298446,node/7041071600,Autobus Tera,9.03371,0
,38.7294433,node/7041071601,Darsema Grosery,9.0338533,0
,38.7200106,node/7041071604,Girum Hospital,9.04636,0
,38.7212396,node/7041071605,Woreda 7 TVET,9.0407262,0
,38.7219216,node/7041071606,Sefere Salam,9.0366318,0
,38.7173824,node/7041071607,Kolfe,9.037044,0
,38.7164487,node/7041071608,Abysinia Coffee,9.0373422,0
,38.7151531,node/7041071609,Degu Hotel,9.0338162,0
,38.7130781,node/7041071610,18 Mazoria,9.0335338,0
,38.7135105,node/7041071612,18 Mazoria,9.0335825,0
,38.7093322,node/7041071614,Luwkanda,9.0333303,0
,38.704541,node/7041071615,Kolfe Secondary School,9.0340139,0
,38.6951186,node/7041071616,Realstate,9.0327975,0
,38.6888917,node/7041071619,Police Tabiya,9.034058,0
,38.6875252,node/7041071620,Feli Doro (1),9.0342811,0
,38.6853297,node/7041071622,Feli Doro,9.0353789,0
,38.7568178,node/7041071628,Ras Mekonene Bridge (Seba Dereja),9.0389362,0
,38.7625491,node/7041071629,5 Kilo (History Museum),9.0385989,0
,38.761951,node/7041071630,5 Kilo University,9.0408311,0
,38.7615693,node/7041071633,Lion Zoo (PEPSI Kiosk),9.0427151,0
,38.7603878,node/7041071636,Yekatit 12 Hospital,9.0438891,0
,38.7593176,node/7041071637,Yeatit 12 Hospital,9.0436921,0
,38.7527639,node/7041071638,Red-Cross (St. George Total),9.0386136,0
,38.7517494,node/7041071639,St. George Church (Total),9.0386684,0
,38.7488778,node/7041071640,Semen Hotel,9.0436522,0
,38.7482928,node/7041071641,Semen Hotel,9.0446929,0
,38.7461719,node/7041071642,Kelemwerk,9.0486023,0
,38.7458026,node/7041071643,Kelemwerk,9.0488673,0
,38.7443439,node/7041071645,Tibeb Ediget School,9.0512494,0
,38.7433813,node/7041071646,Semen Mazegaga,9.0523631,0
,38.7424925,node/7041071647,Semen Mazagaja,9.0537306,0
,38.7200104,node/7041071648,Shegole Bank,9.0541015,0
,38.7277601,node/7041071649,Pawlos Hospital,9.0474202,0
,38.7221677,node/7041071650,Finance,9.0514832,0
,38.7220512,node/7041071651,Medhanialem (TOTAL),9.0513651,0
,38.7201878,node/7041071653,Finance,9.0528369,0
,38.7199027,node/7041071654,Finance,9.0531245,0
,38.7149847,node/7041071655,Winget Chaf,9.0544244,0
,38.7088754,node/7041071657,4 Menta Adebabay,9.0520588,0
,38.6987792,node/7041071658,Mikili Land,9.051327,0
,38.7137033,node/7041071659,Winget Adebabay,9.0571703,0
,38.7116367,node/7041071660,Awolia,9.0576087,0
,38.7067279,node/7041071661,Gulele Fana,9.0577975,0
,38.7065488,node/7041071662,Gulele Fana,9.0582376,0
,38.7034077,node/7041071663,Berchiko,9.0593548,0
,38.69045,node/7041071665,Gebriel (Sansusi),9.0665816,0
,38.7791204,node/7041071718,Bono Weha,9.057952,0
,38.7722233,node/7041071719,Mezan,9.053538,0
,38.7690705,node/7041071721,3rd Shaleka,9.0470252,0
,38.7615547,node/7041071723,6 Kilo (University),9.0461753,0
,38.7622054,node/7041071725,Meksaye Hizunan Medhanialem,9.0513004,0
,38.7622236,node/7041071726,Teferi Mekonen,9.052326,0
,38.7625698,node/7041071729,Sebseba Maekel,9.0541533,0
,38.7715088,node/7041071737,Eyesus,9.0649811,0
,38.7680987,node/7041071738,Hamle 19,9.0585516,0
,38.7607205,node/7041071740,Selassie,9.0692162,0
,38.7590628,node/7041071741,Sanba Nekersa-Shiromeda,9.0745256,0
,38.7572536,node/7041071742,Kuskoam,9.0777328,0
,38.7374397,node/7041071749,Dil Ber,9.0710894,0
,38.7204079,node/7041071753,Anbessa Garage (Shegole),9.0638294,0
,38.7182194,node/7041071754,Kebt Beret,9.0691617,0
,38.7230011,node/7041071755,Entoto Kela,9.0843712,0
,38.7095299,node/7041071758,Weserbi Realestate,9.1051152,0
,38.7147037,node/7041071759,Classy Water,9.1095355,0
,38.7158285,node/7041071760,Medret Hotel,9.1100449,0
,38.7300979,node/7041071761,Kburea,9.1176074,0
,38.7304557,node/7041071762,Kenenisa,9.1179357,0
,38.7395293,node/7041071763,Shefunea,9.1273122,0
,38.7397834,node/7041071764,Shefine,9.1277902,0
,38.7522344,node/7041071772,Doro Erbata,9.1339361,0
,38.7524529,node/7041071773,Abo Gabriel,9.1341343,0
,38.7549356,node/7041071774,Tulu Fati,9.1408321,0
,38.7538733,node/7041071775,Ashewa,9.1449015,0
,38.7542489,node/7041071776,Tabya Hotel,9.1560016,0
,38.738359,node/7047495429,Sar Bet (Roundabout),8.9929589,0
,38.6600221,node/7047495432,United Bank (Ashewa Meda),9.0286142,0
,38.7346499,node/7047495433,Sefera,8.9208064,0
,38.744323,node/7049122264,Lafto,8.9473774,0
,38.7440895,node/7049122265,Hana Mariam (2),8.935835,0
,38.7345586,node/7049122266,Haile Garment,8.9387647,0
,38.8779866,node/7049921444,Yekiber Demena Church,9.0304285,0
,38.8024339,node/7049921445,Megenagna Terminal,9.0204726,0
,38.8759579,node/7049921447,Hill Bottom (Recreation),9.0220882,0
,38.8775474,node/7049921448,Zone 8,9.0304125,0
,38.8779122,node/7049921449,Aba Kiros (Tafo) Roundabout,9.0570656,0
,38.8790275,node/7050234123,Tafo Junction,9.0566049,0
,38.8021323,node/7050327664,Megenagna Terminal,9.020626,0
,38.7617178,node/7054842410,6 Kilo,9.0476858,0
,38.7617169,node/7054842414,6 Kilo,9.0476498,0
,38.7532161,node/7055060064,Legehar (Old Train Station),9.0106346,0
,38.8546711,node/7055598734,Kotebe Gebriel,9.0359897,0
,38.8299268,node/7055598736,Ahmed Building,9.0269686,0
,38.7579049,node/7055598738,St. Mary Church,9.0363488,0
,38.7535483,node/7055598739,Piassa Arada,9.0335541,0
,38.7534018,node/7055598742,Piassa Arada,9.0327818,0
,38.7579442,node/7055598743,St. Mary Church,9.0363807,0
,38.8307544,node/7055598744,NOC End,9.0274541,0
,38.8467717,node/7056754511,Kotebe Teachers College,9.0341209,0
,38.8732637,node/7056754514,Meskelegna (Ababdo),9.0630764,0
,38.8022361,node/7056754516,Megenagna,9.020907,0
,38.779674,node/7057002158,Atlas,9.0041945,0
,38.7528717,node/7057002161,Piassa Arada,9.0329242,0
,38.7568279,node/7057002162,Ras Mekonene Bridge (Seba Dereja),9.0389386,0
,38.7626361,node/7057002163,Gibi Gebriel Church,9.0226675,0
,38.7929906,node/7057187392,Brass Clinic (Bole),8.9904207,0
,38.7932003,node/7057187393,Brass Clinic (Bole),8.9903142,0
,38.7519784,node/7062689844,St.Gorgis,9.0379471,0
,38.751629,node/7062689845,St. George Church (2),9.0358742,0
,38.7549398,node/7062689848,Piassa,9.0345896,0
,38.764362,node/7062689850,Arat Kilo,9.0325203,0
,38.7630946,node/7062689851,4 Kilo,9.0344021,0
,38.7621098,node/7062689852,Medhanialem,9.0506154,0
,38.7635923,node/7062689854,Education Bureau (6 Kilo),9.044142,0
,38.7690204,node/7062689855,Jan Meda,9.0471236,0
,38.7742742,node/7062689856,Frensaye Kela,9.0557922,0
,38.7736282,node/7062689857,Frensaye Kela,9.0551762,0
,38.7777387,node/7062689858,Abo Mazoriya,9.0569998,0
,38.7881845,node/7062689859,Gurara,9.0623294,0
,38.7608987,node/7067942461,Mamo (NFSL TVET),8.9730894,0
,38.7595747,node/7067942462,Agona Cinema,8.988213,0
,38.7597959,node/7067942463,Agona Cinema,8.9882665,0
,38.7587377,node/7067942465,Tele Garage,9.0004682,0
,38.7589773,node/7067942466,Meshualekia,9.0057314,0
,38.7824519,node/7067990019,Zerihun Building,9.0145395,0
,38.7669539,node/7067990020,6th (Raddison Blu),9.0166971,0
,38.7621456,node/7070861695,National Palace,9.026432,0
,38.7872174,node/7070861696,SNAP Building,8.9897614,0
,38.7844888,node/7070861697,Friendship,8.9908557,0
,38.7822311,node/7070861698,Heber Restaurant,8.9917592,0
,38.7791533,node/7070861699,RWANDA (Werbek House),8.992295,0
,38.7740953,node/7070861700,Wollo Sefer,8.9946542,0
,38.7798477,node/7070861701,Rwanda,8.9924,0
,38.7723732,node/7070861702,Bole Printing Press,8.9966227,0
,38.7715908,node/7070861703,Bole Printing Press,8.9976714,0
,38.7708659,node/7070861704,Mega Printing Press,8.9993469,0
,38.7697078,node/7070861705,Shewa Dabo,9.001132,0
,38.7697673,node/7070861706,Getu Commercial Center,9.0014126,0
,38.7678519,node/7070861707,Dembel City Center,9.004953,0
,38.7634195,node/7070861710,Flamingo,9.0100482,0
,38.7528459,node/7070861712,Piassa Arada,9.0358386,0
,38.8054033,node/7070861713,Anbessa Garage,9.0074376,0
,38.876525,node/7070861714,Ayat Roundabout,9.0221276,0
,38.8777949,node/7070861716,Gebriel,9.0401288,0
,38.7433527,node/7074233342,Semen Mazegaja | ሰሜን ማዘጋጃ,9.0527134,0
,38.7411604,node/7074233343,Del Ber School,9.0559007,0
,38.7379037,node/7074233344,Adisu Gebeya,9.0592088,0
,38.7355505,node/7074233345,Kelebat,9.061605,0
,38.7347909,node/7074233346,Oilibiya (Dil Ber),9.0679367,0
,38.7301845,node/7074267433,Pastor,9.0463006,0
,38.7228618,node/7074267434,Medhanialem,9.051161,0
,38.7138884,node/7074267435,Winget,9.0554455,0
,38.6101592,node/7074269464,Kela,9.0576131,0
,38.6101611,node/7074269465,Kela,9.0576152,0
,38.7481339,node/7074275407,Semen Hotel,9.0452427,0
,38.7484333,node/7074294627,Kera,8.9866969,0
,38.6922669,node/7074299254,Asko,9.0653014,0
,38.733098,node/7074324043,Sebategna,9.0286512,0
,38.7324012,node/7074324044,Autobis Tera (2),9.0317912,0
,38.7321005,node/7074324045,Autobis Tera,9.0347276,0
,38.7315967,node/7074326525,Mekanisa,8.9733512,0
,38.7343058,node/7074326526,Abo Mazoria,8.9822244,0
,38.8580841,node/7074330387,Gate 2,8.9894962,0
,38.8605382,node/7074330389,Tena Tabeya,8.9942098,0
,38.8602323,node/7074330391,Condminium (Gate),8.9984544,0
,38.8573283,node/7074330392,Gomista,9.0014062,0
,38.8517162,node/7074330394,Summit (MOHA),9.0040839,0
,38.8518265,node/7074330397,Safari,9.0106601,0
,38.820944,node/7074330400,Alemayehu,8.999474,0
,38.8196821,node/7074330401,Alemayehu,9.0005663,0
,38.8095474,node/7074330403,Condominium,9.0050845,0
,38.8287819,node/7074330407,Ethio-china,9.026612,0
,38.8643277,node/7074330409,Kara,9.0403987,0
,38.8850641,node/7074332290,Project 15,8.9654679,0
,38.8845811,node/7074332294,Kela,8.9772657,0
,38.7010211,node/7074347184,Chereta,9.0616842,0
,38.6894082,node/7074353066,Gerar,8.9813585,0
,38.6959643,node/7074374410,Jemo 3,8.9538291,0
,38.6921288,node/7074374411,Furi,8.951847,0
,38.6891023,node/7074387585,Sansusi,9.0714186,0
,38.6722328,node/7074496216,Kersa (2),9.0285405,0
,38.6653802,node/7074496217,Ashewa Meda,9.0326531,0
,38.6653823,node/7074496218,Ashewa Meda,9.0326414,0
,38.6569665,node/7074496219,United Bank (Ashewa Meda),9.0258997,0
,38.6515848,node/7074496221,St. Gebriel,9.027689,0
,38.6515743,node/7074496222,St. Gebriel,9.0276843,0
,38.6216778,node/7074496225,Gojo,9.0417975,0
,38.6776598,node/7074504387,Alem Bank,9.0010346,0
,38.6982193,node/7074504388,Ayer Tena,8.9831093,0
,38.6944335,node/7074504390,Bethel,9.0045877,0
,38.7053132,node/7074504391,Mewcha,9.0139079,0
,38.7004735,node/7074504392,Mendida,9.0149626,0
,38.7486994,node/7074525370,Mebrat Nigist Hotel,8.9700751,0
,38.7326808,node/7074541084,Lideta Kefetega Firdbet,9.0116457,0
,38.7341804,node/7074561389,Sefera Square,8.9249315,0
,38.7363202,node/7074561391,Haile Garment,8.9368661,0
,38.7334502,node/7074561392,Mebrathile (EEPCo),8.9493593,0
,38.7544146,node/7074561393,Hana Mariam,8.9309368,0
,38.7444615,node/7074561394,Hana Mariam (2),8.9361698,0
,38.7448233,node/7074561395,Meskelgna,8.95299,0
,38.7514315,node/7074585943,Piassa Arada,9.0357438,0
,38.7633143,node/7074585944,Arat Kilo,9.0324015,0
,38.759835,node/7074599697,Beklo Bet (Global),8.9953761,0
,38.7672511,node/7074691520,Dembel City Center,9.0055741,0
,38.7471393,node/7074707878,Mexico,9.010735,0
,38.7478601,node/7074707880,ERA Office (Big Mak),9.0127963,0
,38.7591385,node/7074707881,Saint Josphe School,9.0092034,0
,38.7628296,node/7074707883,St. Estifanos Church,9.0124825,0
,38.7607684,node/7074819178,Mamo (NFSL TVET),8.9725713,0
,38.7585063,node/7074841187,Kadisco,8.9310399,0
,38.7643672,node/7074841188,Kality Maseltegna,8.9339802,0
,38.7442895,node/7074921333,Teklehaimanot,9.0291868,0
,38.7406481,node/7074921334,Berbere Tera,9.0266712,0
,38.7498569,node/7075101457,Dildiy Mariam,8.9585362,0
,38.7497528,node/7075101459,Kera (Gofa Stop),8.9837158,0
,38.7208842,node/7075129253,Tor Hailoch,9.009717,0
,38.7207996,node/7075129254,Torhayloch,9.0117428,0
,38.7222467,node/7075129255,Tor Hailoch,9.0117788,0
,38.7588986,node/7076294502,Riche,9.0043941,0
,38.7438551,node/7076294503,Mebrat Condominium,8.9645236,0
,38.7633289,node/7076294504,Kadisco,8.9638868,0
,38.7646677,node/7076294505,Flamingo,9.0089349,0
,38.8601035,node/7076294507,Condminium (Gate),8.9984013,0
,38.8738883,node/7076294508,Sara Ampol (Gedera),9.0571285,0
,38.7325725,node/7076294509,Michael (2),9.0418835,0
,38.7612538,node/7076294510,Shero Meda,9.0622823,0
,38.7613619,node/7076294511,Shero Meda,9.0618175,0
,38.7369836,node/7076294512,Dil Ber,9.0716602,0
,38.7607132,node/7076294515,Shiromeda Selassie,9.0692159,0
,38.7613887,node/7076294516,Shero Meda,9.0618235,0
,38.7612093,node/7076310930,6 Kilo (Akim Genbata),9.0447597,0
,38.7612397,node/7076310931,Shero Meda,9.0626379,0
,38.7619991,node/7077424942,Medhanialem,9.0507372,0
,38.7551039,node/7077601626,Ambassador,9.0163885,0
,38.8139111,node/7077785205,Lamberet,9.0216085,0
,38.8692642,node/7077785206,Kara Condominium,9.0479009,0
,38.8676583,node/7077785207,G-7 (Meskelegna),9.0655587,0
,38.8695121,node/7077785209,Kara Condominium,9.0480304,0
,38.7325536,node/7077863009,Autobis Tera (2),9.031811,0
,38.6833448,node/7077863010,Tropical,8.9960545,0
,38.6779208,node/7077863012,Alem Bank,9.0003767,0
,38.6830207,node/7077863014,Tropical,8.9965876,0
,38.6892387,node/7077863015,Kidane Mihret,8.9923549,0
,38.6941906,node/7077863016,Bethel,9.004479,0
,38.7004836,node/7077863017,Mendida,9.0151128,0
,38.7327417,node/7077863018,Abinet,9.019638,0
,38.7329768,node/7077863019,Sebategna,9.0280905,0
,38.7440208,node/7078164250,Mexico,9.0088714,0
,38.7349155,node/7078164251,Haile Garment,8.9381825,0
,38.7311018,node/7078164254,Mekanisa,8.9729343,0
,38.7345326,node/7078164255,Abo Mazoria,8.9820586,0
,38.7437936,node/7078164256,Mexico,9.0088201,0
,38.7323925,node/7078406225,Autobis Tera (1),9.0330269,0
,38.7090191,node/7078406227,Zenebework,8.9876369,0
,38.6949214,node/7078406228,Ayer Tena,8.9822919,0
,38.6817556,node/7078406231,Kara Kore,8.9755975,0
,38.6823873,node/7078406235,Kara Kore,8.9763865,0
,38.6939258,node/7078406236,Ayer Tena (Gerar-Repi),8.9822452,0
,38.6853377,node/7078406237,Repi (Gerar),8.9795411,0
,38.7051886,node/7078406238,Zenebework (Crossing),8.9852814,0
,38.715946,node/7078406239,3 Kutir Mazoriya (Total),8.992776,0
,38.7322299,node/7078406240,Autobis Tera (1),9.0330007,0
,38.8100534,node/7080251773,Condominium,9.0049451,0
,38.8268744,node/7080251774,Goro School,8.993889,0
,38.8056204,node/7080251776,Anbessa Garage,9.0071789,0
,38.76366,node/7080440194,Estifanos,9.0110028,0
,38.7690578,node/7080440195,BAMBIS,9.0104866,0
,38.7752996,node/7080440196,St. Urael Church,9.0115088,0
,38.7823039,node/7080440197,Lex Plaza,9.0147285,0
,38.7896417,node/7080440198,22 (Haya Hulet),9.0164226,0
,38.8004816,node/7080440200,Megenagna,9.0194097,0
,38.8005914,node/7080440203,Megenagna,9.019032,0
,38.7955696,node/7080440204,Lem Hotel,9.0177169,0
,38.7896635,node/7080440205,22 (Haya Hulet),9.0162149,0
,38.7694936,node/7080440206,BAMBIS,9.0102033,0
,38.7467585,node/7080440208,Mexico,9.0104304,0
,38.7462899,node/7080527282,Mexico,9.0098462,0
,38.7487773,node/7080527284,Kera,8.9863213,0
,38.7487535,node/7080611085,Mebrat,8.96688,0
,38.746773,node/7080611091,Mexico Shebelle Hotel,9.0120423,0
,38.7322629,node/7080893992,Michael,9.0412736,0
,38.732023,node/7080893993,Autobis Tera,9.034717,0
,38.7306587,node/7080893994,Pastor,9.0460782,0
,38.713458,node/7080893995,Winget,9.0560646,0
,38.7009781,node/7080893996,Chereta,9.0613645,0
,38.6891732,node/7080894001,Sansusi,9.0715888,0
,38.7624277,node/7081034796,5 Kilo (History Museum),9.0385658,0
,38.7785478,node/7081034797,Abo Mazoriya,9.0574672,0
,38.7640045,node/7081034799,Education Bureau (6 Kilo),9.0441923,0
,38.732915,node/7084255331,Total (Dil Ber),9.0648091,0
,38.7533521,node/7084255333,Piassa Arada,9.0341775,0
,38.7374497,node/7084255334,Addisu Gebeya,9.0594855,0
,38.733166,node/7084255335,Tsion Cafe (Addisu Gebeya),9.0638908,0
,38.7327389,node/7084255336,Total (Dil Ber),9.0653883,0
,38.7405402,node/7084722454,Ummar School,9.0337517,0
,38.7337992,node/7084722456,Autobis Tera (3),9.0341036,0
,38.7418327,node/7084722457,Gojam Berenda (Tefera Buillding),9.0341305,0
,38.7533374,node/7084722458,Dej. Wube (Ras Abebe School),9.0404538,0
,38.7544994,node/7084722459,Wube Bereha,9.0440672,0
,38.7588473,node/7084722460,Menen,9.0515491,0
,38.7598297,node/7084722461,Tsehay Chora (ShiroMeda),9.0584002,0
,38.7332661,node/7084873006,Sebategna (Taem Bakery),9.0274958,0
,38.7380924,node/7084873007,Mola Maru (Jos Hansen),9.0188835,0
,38.7382054,node/7084873008,Geja Sefer (Darmar),9.0167149,0
,38.7486804,node/7084873009,Kera (Green Market),8.9856954,0
,38.7518917,node/7084873010,Kera (Mexico Stop),8.9841757,0
,38.7560749,node/7084873011,MOHA (Pepsi Factory),8.9824212,0
,38.7635412,node/7084873012,Saris (Shoa Bakery),8.9547202,0
,38.7509324,node/7084873013,Kera (Saris Stop),8.9844206,0
,38.7469466,node/7084873014,Guenet Hotel (Orbis),9.002055,0
,38.736541,node/7084873015,St. Lideta Church,9.0111972,0
,38.733649,node/7084873016,Abenet (Joshansen),9.0192478,0
,38.7373207,node/7084932737,Canada Embassy,8.9951157,0
,38.7311778,node/7084932738,Mechare Meda,8.9973163,0
,38.7239615,node/7084932739,Bisrate Gebrael,8.9892732,0
,38.705264,node/7084932740,Zenebework (Crossing),8.9850622,0
,38.6960209,node/7084932741,Ayer Tena,8.9838697,0
,38.6887357,node/7084932742,Kidane Mihret (Roundabout),8.9917639,0
,38.690106,node/7084932743,Kidane Mihret (2),8.9910254,0
,38.7185689,node/7084932745,Augusta Bridge (Tor Hailoch),9.0056187,0
,38.7445753,node/7084932747,Mexico,9.0114539,0
,38.8285018,node/7098810331,Goro Roundabout,8.9839859,0
,38.8370059,node/7098810332,Kotebe Shet',8.9678887,0
,38.8352869,node/7098810333,Bole Lemi,8.9585287,0
,38.8219339,node/7098810334,Endorro 2,8.9405669,0
,38.8152364,node/7098810335,Kilinto Right (Heniken),8.9007946,0
,38.8240221,node/7098810336,Koye Feche 4,8.8947925,0
,38.8277372,node/7098810337,Koye Feche 3,8.8925887,0
,38.8313712,node/7098810338,Koye Feche 2,8.896302,0
,38.8268887,node/7098810339,Koye Feche,8.9046728,0
,38.8289328,node/7098810340,Goro Roundabout,8.9837967,0
,38.8374461,node/7098810341,Kotebe Shet',8.9678046,0
,38.8354629,node/7098810342,Bole Lemi,8.9573187,0
,38.8217947,node/7098810343,Endorro 2,8.9393928,0
,38.820007,node/7098810344,Endorro 1,8.9307029,0
,38.8155747,node/7098810345,kilinto (Heniken Brewery),8.9005132,0
,38.8196082,node/7098833728,Gurd-shola,9.0192718,0
,38.8331381,node/7098833729,Civil Service College,9.021924,0
,38.8400876,node/7098833730,St. Michael,9.021617,0
,38.8524287,node/7098833731,Sunshine Apartments,9.0193173,0
,38.8575794,node/7098833732,Gomista,9.0019915,0
,38.8588022,node/7098833735,Hasset Photo,8.9918735,0
,38.8521013,node/7098833736,Sunshine Apartments,9.0190988,0
,38.8504565,node/7098833737,CMC (Apartments),9.0208488,0
,38.8401568,node/7098833738,St. Michael,9.0213567,0
,38.7312293,node/7102193971,Merkato,9.0337594,0
,38.7254909,node/7102193972,Mesalemia (Area Police),9.0338552,0
,38.7086533,node/7102193973,Luwkanda,9.0332635,0
,38.7049566,node/7102193974,Comprensive,9.0338494,0
,38.642409,node/7102193975,Gefersa,9.031909,0
,38.6117467,node/7102193976,Gojo (Kela),9.0563274,0
,38.6120244,node/7102193977,Gojo (Kela),9.0560454,0
,38.6265192,node/7102193978,Gefersa (2),9.0375371,0
,38.6329501,node/7102193979,Gefersa,9.0356795,0
,38.6674596,node/7102193980,Ashewa Meda (1),9.0328635,0
,38.6760437,node/7102193981,Kersa (1),9.0286003,0
,38.687173,node/7102193982,Feli Doro (2),9.0343761,0
,38.7244946,node/7102193983,Mesalemia,9.0344498,0
,38.7312074,node/7102269985,Merkato,9.0338637,0
,38.6977085,node/7103202615,Ayer Tena,8.9821491,0
,38.7316085,node/7103202616,German Bridge,8.9647174,0
,38.7342372,node/7103202617,Mebrathile (EEPCo),8.9470109,0
,38.7692016,node/7103202619,Saris Abo,8.9444277,0
,38.7666082,node/7103202620,Saris Abo,8.944353,0
,38.7645892,node/7103202621,Kality Maseltegna,8.9336411,0
,38.7550031,node/7103202622,Hana Mariam (Bridge),8.930547,0
,38.72738,node/7103202623,Mickael Bridge,8.9653607,0
,38.6976219,node/7103202625,Ayer Tena,8.9820533,0
,38.7729637,node/7104888674,Bel Air,9.0323651,0
,38.8506098,node/7105158906,CMC (Apartments),9.0211237,0
,38.8774831,node/7105158907,Tafo Condominium 2,9.0462589,0
,38.8775457,node/7105158908,Tafo Condominium 1,9.0502639,0
,38.7490031,node/7105268824,Mebrat (Lafto),8.9593839,0
,38.7497551,node/7105268825,Dildiy Mariam,8.9587047,0
,38.7504407,node/7105268826,Lafto (Mickael),8.9537745,0
,38.7493803,node/7105268828,Lafto,8.9465504,0
,38.7450783,node/7105268830,Lafto (Primary School),8.9558865,0
,38.7534558,node/7105398617,Post Office (Ambassador),9.0185243,0
,38.761425,node/7105398618,6 Kilo,9.0462,0
,38.7623138,node/7105398619,Teferi Mekonen,9.0522977,0
,38.7999868,node/7105584907,Marathon Motor (Megenagna),9.022269,0
,38.762507,node/7105584908,Arat Kilo,9.0332665,0
,38.7532588,node/7105584909,Piassa Arada,9.0341288,0
,38.7625094,node/7105584911,Arat Kilo,9.0332715,0
,38.7888307,node/7105584912,Abebe Sook,9.0289345,0
,38.7492708,node/7105840324,Abune Petros,9.0358919,0
,38.745898,node/7105840325,Yohannes,9.0424895,0
,38.7421685,node/7105840326,Arbegnoch Primary School,9.0472271,0
,38.7376837,node/7105840327,Enqulal Fabrica,9.0485317,0
,38.7450108,node/7105840330,Yohannes,9.0434044,0
,38.7373533,node/7105840331,Enqulal Fabrica,9.0481067,0
,38.7350358,node/7107670562,Sefera,8.9209077,0
,38.7332384,node/7107670563,Mebrathile (EEPCo),8.94963,0
,38.7341183,node/7107670564,Mekanisa Abo,8.9829863,0
,38.6879228,node/7107789218,Jemmo 2,8.9606298,0
,38.7511477,node/7107789219,Piassa (Downtown Cafe),9.0319297,0
,38.6878636,node/7107789220,Jemmo 2,8.9605732,0
,38.7483037,node/7108224469,Kera,8.9860956,0
,38.7675202,node/7110438104,6th (Raddison Blu),9.0166264,0
,38.7701955,node/7110438105,Kazanchis (6th),9.0171928,0
,38.7758778,node/7110438106,Aware Roundabout,9.0231177,0
,38.7815333,node/7110438107,Signal,9.0234853,0
,38.7867845,node/7110438108,Dinberwa Hospital,9.0221973,0
,38.7940254,node/7110438109,Lem Hotel,9.0212061,0
,38.8157252,node/7110438110,Lamberet (Queens),9.022362,0
,38.8281186,node/7110438111,Kotebe 01,9.0348925,0
,38.8281855,node/7110438113,Kotebe 01,9.0349074,0
,38.7948696,node/7110438114,Shola (United Bank),9.0217059,0
,38.792498,node/7110438115,Sumeya Mosque,9.021194,0
,38.7815645,node/7110438116,Signal,9.023369,0
,38.7640618,node/7110725239,Kality Gebriel,8.9104302,0
,38.7673729,node/7110725240,Addis Sefer (Overpass),8.9572931,0
,38.7723221,node/7110725241,Bole Mickael (2),8.9799499,0
,38.7903601,node/7110725242,Bole Bridge,8.9867261,0
,38.7957512,node/7110725243,MOENCO,8.9948785,0
,38.7988652,node/7110725244,Sport Academy,9.0009401,0
,38.8030776,node/7110725245,Anbessa Garage,9.0077883,0
,38.8032793,node/7110725247,Anbessa Garage,9.0076034,0
,38.8009424,node/7110725248,Emperial Hotel,9.0037859,0
,38.7947105,node/7110725250,Bole (Bora Amusement),8.9910225,0
,38.7721474,node/7110725251,Bole Mickael (2),8.9795995,0
,38.7676814,node/7110725252,Addis Sefer,8.9603711,0
,38.7692206,node/7110725253,Saris Abo,8.945759,0
,38.7648588,node/7110725254,Kality (Correctional Facility),8.9234126,0
,38.7718808,node/7110725256,Kality Meneharia,8.8959395,0
,38.7588358,node/7111821010,Arat Kilo,9.0354591,0
,38.7538404,node/7111821011,Piassa (EPPCO),9.0325113,0
,38.7374552,node/7111821013,Autobis Tera,9.0317457,0
,38.7372851,node/7111821015,Autobis Tera,9.0302352,0
,38.7887833,node/7111821016,Dinberwa Hospital (1),9.0216842,0
,38.721592,node/7112123457,Chid Tera,9.0374493,0
,38.7149359,node/7112123458,Mebrathail,9.0294949,0
,38.7177803,node/7112123459,Kolfe Keranyo,9.0173854,0
,38.708993,node/7112123460,Keranio Bridge,9.0193846,0
,38.7176821,node/7112123462,Kolfe Keranyo,9.0170237,0
,38.7163686,node/7112123463,Abysinia Coffee,9.0370321,0
,38.7208971,node/7112123464,Chid Tera,9.0376714,0
,38.7188624,node/7112215078,Old Airport (Mobil),8.9998854,0
,38.7196192,node/7112215079,Minaye (Shoa Supermarket),9.008471,0
,38.7158287,node/7112215080,Holand,9.0208524,0
,38.7141478,node/7112215081,18 Mazoria (Atena Tera),9.0361682,0
,38.7125982,node/7112215082,Atena Tera,9.0409736,0
,38.7116581,node/7112215083,Winget TVET,9.0491202,0
,38.7124575,node/7112215084,Winget,9.0555289,0
,38.7127274,node/7112280388,Winget,9.0554541,0
,38.7117843,node/7112280389,Winget TVET,9.0494004,0
,38.7122352,node/7112280390,kolfe (Atena Tera),9.0448145,0
,38.712721,node/7112280391,Atena Tera,9.0414434,0
,38.7143961,node/7112280392,18 Mazoria (Atena Tera),9.0362317,0
,38.7152453,node/7112280393,Meseret Edget,9.0244809,0
,38.7188519,node/7112280394,Augusta Bridge (Tor Hailoch),9.0056155,0
,38.8146269,node/7112648156,Mahiber Betoch,8.8596281,0
,38.8210444,node/7112648157,Project 12 Akababi,8.865212,0
,38.8204129,node/7112648158,G7 (Tulu Dimtu),8.8701237,0
,38.7965426,node/7112648159,Belay Ab Moters,8.871336,0
,38.779459,node/7112648160,Gelan Condominium,8.8797273,0
,38.7728422,node/7112648161,Kality Total,8.894811,0
,38.770309,node/7112648162,Akaki Subcity Office (Menaheria),8.8973286,0
,38.7641522,node/7112648163,Kality (Correctional Facility),8.9224149,0
,38.7676362,node/7112648164,Techtra Engineering,8.9281178,0
,38.7637599,node/7112648165,Adey Abeba,8.9572677,0
,38.7669427,node/7112648166,Kality Maseltegna,8.9323914,0
,38.768315,node/7112648167,Wehalemat,8.9298175,0
,38.7768426,node/7112648168,Awash Bank (Akaki Kality),8.8837788,0
,38.7793211,node/7112648169,Gelan Condominium,8.8799589,0
,38.7963837,node/7112648170,Belay Ab Moters,8.8716847,0
,38.8091005,node/7112648172,TAF Oil (Tulu Dimtu),8.8705655,0
,38.7439418,node/7112755338,Teklehaymanot,9.0278217,0
,38.7376384,node/7112755340,Autobis Tera,9.0314996,0
,38.7381207,node/7112755342,Autobis Tera,9.0308454,0
,38.7468282,node/7112755343,Meteorology,9.0194238,0
,38.7199737,node/7113004009,Girum Hospital,9.0462468,0
,38.7211613,node/7113004010,Ras Hailu (Medhanialem),9.0509733,0
,38.7114101,node/7113004011,Awolia,9.0572551,0
,38.6983516,node/7113004012,Bercheko Fabrica (Asko),9.0640587,0
,38.70588,node/7113004013,Gulele,9.0598807,0
,38.7210939,node/7113004014,Ras Hailu (Medhanialem),9.0507813,0
,38.7212829,node/7113004015,Woreda 7 TVET,9.040909,0
,38.7213725,node/7113004016,Chid Tera,9.0380466,0
,38.7365754,node/7113004018,Autobis Tera,9.0312199,0
,38.73268,node/7113004020,Michael (2),9.0426217,0
,38.7261371,node/7113004021,Pawlos Hospital (Saba Mosque),9.0485205,0
,38.7205811,node/7113004022,Anbessa Garage (Shegole),9.0643796,0
,38.7266132,node/7113004024,Shegole (Mender 7),9.0641379,0
,38.726699,node/7113004026,Shegole (Mender 7),9.0641466,0
,38.7189551,node/7113004027,Hassen & Hussein Mosque (Shegole),9.0589167,0
,38.7198445,node/7113004028,Shegole Bank,9.0548351,0
,38.7321449,node/7113004029,Michael,9.0409541,0
,38.7712666,node/7113158623,Eyesus,9.0652655,0
,38.8201425,node/7123180297,Gurd Shola,9.0189315,0
,38.7629695,node/7214490240,4 Kilo Minilik School,9.0351361,0
,38.7708485,node/7214490241,Kality Menaheriya,8.8967488,0
,38.497947,node/10672522047,Holeta,9.0675662,0
,38.53199,node/10672522056,Sademo,9.065884,0
,38.5920589,node/10672522057,Cheshire Ethiopia,9.0712731,0
,38.8085926,node/10672721751,Delta Fuel Station,8.8504983,0
,38.8243789,node/10672739809,Sidama Awash NOC,8.8412588,0
,38.8396009,node/10672739811,Atlas Resort,8.8314833,0
,38.818065,node/10672739815,ODDA Fuel Station,8.8447465,0
,38.717673,node/10672961242,3 Kutir (TZNA Area),8.9943894,0
,38.7335924,node/10672961244,Lideta High Court,9.0117316,0
,38.7024743,node/10750378219,Ayer Tena,8.9839135,0
,38.7626278,node/10766121864,St. Estifanos,9.0125659,0
,38.7641345,node/10766121867,Place Parking (Gibi Gebriel),9.0214342,0
,38.7743234,node/10766121869,Wollo Sefer,8.9944147,0
,38.7761469,node/10766121871,Bole Mikael,8.9812653,0
,38.7670877,node/10766121873,kality Maseltegna,8.9321192,0
,38.7721261,node/10766121874,kality Meneharia,8.8957067,0
,38.7908923,node/10766454594,Bole Roundabout,8.9867247,0
,38.7341844,node/10768858714,German Square,8.965437,0
,38.7420458,node/10768858715,Gofa Camp,8.97192,0
,38.7411322,node/10768858718,African Union,9.003043,0
,38.7370315,node/10768858719,Autobis Tera,9.0296254,0
,38.7470064,node/10768858720,Guenet Hotel (Orbis),9.0026517,0
,38.7340469,node/10768858723,German Square,8.9651822,0
,38.7650098,node/10781643821,Arat Kilo,9.0322896,0
,38.7666152,node/10781643822,4 kilo (Children Theatre),9.0328365,0
,38.7736753,node/10781643823,Bel Air,9.0325481,0
,38.7768069,node/10781643824,Kebena,9.0344084,0
,38.7794124,node/10781643825,Kokebe Tsebah (Kebena),9.0350794,0
,38.7823515,node/10781643826,Kenya Embassy (Kebena),9.0324942,0
,38.785575,node/10781643827,British Embassy,9.0309005,0
,38.7888226,node/10781643828,Abebe Sook,9.0289673,0
,38.7947497,node/10781643829,Shola (Yeka Court),9.0251295,0
,38.7984062,node/10781643830,Shola Abyssinia Bank,9.0232585,0
,38.7997354,node/10781643831,Megenagna (Marathon Motors),9.0224046,0
,38.8010368,node/10781643832,Megenagna,9.0208971,0
,38.788672,node/10781844855,Abebe Sook,9.0287927,0
,38.7843424,node/10781844856,British Embassy,9.0313214,0
,38.7623866,node/10781844857,5 Kilo St. Mary,9.038677,0
,38.7826601,node/10781844861,Kenya Embassy (Kebena),9.032679,0
,38.8773834,node/10823916391,Yeka 03,9.0381854,0
,38.7646885,node/10842065103,kality Maseltegna,8.9358559,0
,38.7819099,node/10842129019,Bole Cargo,8.9834477,0
,38.7704449,node/10842129023,Kality Menaheria,8.8973782,0
,38.7821218,node/10842129027,Derartu,8.8869211,0
,38.7729402,node/10842129029,Kality Total,8.8948904,0
,38.7645559,node/10842129048,Kality Gebriel,8.9093265,0
,38.7635639,node/10842129055,Sheger building,8.9192813,0
,38.7477478,node/10842129057,Bulgaria,8.9947898,0
,38.758701,node/10842129060,Tele Garage,9.0000494,0
,38.7640108,node/10842129066,Adey abada,8.9571801,0
,38.7654586,node/10842129088,Kality Cheralia,8.9068482,0
,38.7593009,node/10842129090,Lancha,8.9906489,0
,38.7486365,node/10842129105,Kera,8.9875165,0
,38.7599766,node/10842129106,Agona,8.9867627,0
,38.7588933,node/10842129112,Riche,9.0041803,0
,38.7683276,node/10842129139,Wuhalimat,8.9295931,0
,38.7666459,node/10845731580,Saris Abo,8.9441872,0
,38.7544517,node/10845731581,Legehar,9.0120319,0
,38.7631799,node/10845731583,Kality Customs,8.9380577,0
,38.7378007,node/10845731584,Gojam Berenda,9.0342603,0
,38.7381021,node/10845731585,Gojam Berenda,9.0343553,0
,38.734431,node/10845731590,Autobus Tera,9.0343246,0
,38.7476261,node/10845731593,Beg Tera,8.9970419,0
,38.7475303,node/10845731602,Beg Tera,8.9968163,0
,38.7479845,node/10845749005,Bulgaria,8.9937615,0
,38.8202354,node/10886135789,Tulu Dimtu,8.8738791,0
,38.7897689,node/10899278324,Bole Bridge,8.9885561,0
,38.7840796,node/10899278325,Friendship Building,8.9908062,0
,38.7722516,node/11033818190,Kality Meneharia,8.8954024,0
,38.7642175,node/11033818192,Kality Maseltegna,8.9361073,0
,38.7406449,node/11033818193,AU (Mikael) Rounrdabout,8.9994656,0
,38.7438741,node/11033818195,Mexico,9.0089885,0
,38.7440373,node/11033818196,Mexico,9.0089241,0
,38.7474194,node/11033818197,Bulgaria Mazoria,8.9945922,0
,38.7373077,node/11033818199,Autobis Tera,9.0316048,0
,38.7377146,node/11033818200,Autobis Tera,9.0299591,0
,38.7483364,node/11033903482,Kera,8.9864921,0
,38.7661144,node/11034015157,Saris Abo,8.9450004,0
,38.7522899,node/11034015158,Piassa Arada,9.0331054,0
,38.7511155,node/11034015159,Piassa Arada,9.0321742,0
,38.7370369,node/11034031010,Autobis Tera,9.03055,0
,38.7612633,node/11034031011,Shero Meda,9.0626384,0
,38.7598757,node/11034031012,Tsehay Chora (ShiroMeda),9.0583756,0
,38.7493262,node/11034031013,Abune Petros,9.0351037,0
,38.7572407,node/11034054993,Kuskoam,9.0777204,0
,38.7654122,node/11034209866,Arat Kilo,9.0321373,0
,38.6806691,node/11034280233,Kara Kore,8.9753965,0
,38.6960927,node/11034280234,Ayer Tena,8.9825611,0
,38.6805349,node/11034280236,Kara Kore,8.9753861,0
,38.7614325,node/11034427397,Lion Zoo (PEPSI Kiosk),9.0426561,0
,38.777181,node/11034427398,Abo Mazoriya,9.0571131,0
,38.7835816,node/11034427399,Yeha,9.0608545,0
,38.7880233,node/11034427400,Gurara,9.0622785,0
,38.7888027,node/11034427401,Gurara,9.0624066,0
,38.7634093,node/11034511605,Saris,8.9535755,0
,38.7636248,node/11034511606,Saris,8.9535945,0
,38.7371486,node/11034611751,Autobis Tera,9.0296904,0
,38.8004821,node/11034647605,Megenagna,9.0221498,0
,38.7220211,node/11035234709,Torhailoch,9.0115667,0
,38.7214866,node/11035240260,Chid Tera,9.0376857,0
,38.6971291,node/11035502832,Ayer Tena,8.9837379,0
,38.7015659,node/11035502833,Ayer Tena,8.9836981,0
,38.7255627,node/11035532608,Bisrate Gebrael,8.9914198,0
,38.7682089,node/11035607129,Zenebewerk Hotel,9.0191017,0
,38.7636411,node/11035607130,Estifanos,9.0107497,0
,38.7386025,node/11035607131,Lideta Condominium,9.0109263,0
,38.7080773,node/11035662205,Zenebework,8.9882771,0
,38.7377271,node/11035734852,Darmar,9.0165403,0
,38.7418753,node/11035734855,Hana Maryam,8.9270084,0
,38.700756,node/11035818337,Bercheko Condominium,9.058672,0
,38.6529741,node/11035914858,Alem Gena,8.9231915,0
,38.6701962,node/11035914859,Noc,8.9494175,0
,38.6699835,node/11035914860,Noc,8.9490541,0
,38.6732105,node/11035914861,Welete Tele,8.9665643,0
,38.6708945,node/11035914862,Welete,8.9635929,0
,38.6707668,node/11035914863,Weleta,8.9641803,0
,38.6731872,node/11035914864,Weleta Tele,8.9666144,0
,38.6967597,node/11035914865,Ayer Tena,8.9834038,0
,38.6960161,node/11035914869,Ayer Tena,8.9825038,0
,38.8642175,node/11036026882,Kara,9.0404548,0
,38.7693583,node/11036079238,Saris Abo,8.9444406,0
,38.6744385,node/11036753217,Anfo Meda,9.0221266,0
,38.819824,node/11036769860,Tulu Dimtu Adebabay,8.8736134,0
,38.7659694,node/11036769861,Saris Abo,8.9458383,0
,38.7083476,node/11036961231,Mestawet Fabrica,8.9591869,0
,38.7375586,node/11037128648,Dil Ber,9.0713656,0
,38.6466135,node/11037149942,Mama,8.9213766,0
,38.6221215,node/11037149943,Sebeta,8.9114218,0
,38.6221242,node/11037149944,Sebeta,8.911417,0
,38.7378407,node/11037175582,Darmar,9.016409,0
,38.6481872,node/11037329865,Gefersa,9.0661154,0
,38.6482288,node/11037329866,Gefersa,9.0660074,0
,38.6885701,node/11037329868,Sansusi,9.0715555,0
,38.6889664,node/11037329869,Sansusi,9.0711639,0
,38.6853104,node/11037663903,Feli Doro,9.0353828,0
,38.8387411,node/11037663904,Wessen Michael,9.0303905,0
,38.8648956,node/11037676705,Kara,9.040725,0
,38.8872902,node/11037676706,Legetafo,9.0657241,0
,38.8978149,node/11037676707,CDC,9.0740824,0
,38.8979204,node/11037676708,CDC,9.0739767,0
,38.9029293,node/11037676709,CDC,9.0779307,0
,38.9153516,node/11037676710,MNS,9.0879289,0
,38.9269029,node/11037676711,Legedadi,9.0875762,0
,38.9269169,node/11037676712,Legedadi,9.0875612,0
,38.9363208,node/11037676713,AB007 (Unknown),9.091308,0
,38.9364849,node/11037676714,AB007 (Unknown),9.0913142,0
,38.950416,node/11037676715,44 Mazoriya,9.0951384,0
,38.951249,node/11037676716,44 Mazoriya,9.0954356,0
,38.9707925,node/11037676718,Legeberi,9.100918,0
,38.9845665,node/11037676720,Ejere,9.1050166,0
,38.9858612,node/11037676721,Dire Mazoriya,9.1088419,0
,38.9859133,node/11037676722,Dire Mazoriya,9.1090753,0
,39.0122379,node/11037676724,AB007 (Unknown),9.1440476,0
,39.0183309,node/11037676725,Sendafa,9.1496399,0
,39.018355,node/11037676726,Sendafa,9.1496263,0
,39.0244897,node/11037676727,Sendafa,9.152171,0
,39.0244943,node/11037676728,Sendafa,9.1521517,0
,39.0302807,node/11037676729,AB007 (Unknown),9.1578674,0
,39.0299296,node/11037676730,AB007 (Unknown),9.1574422,0
,39.0456183,node/11037676731,AB007 (Unknown),9.1592362,0
,39.046121,node/11037676732,AB007 (Unknown),9.1590866,0
,39.0558246,node/11037676734,AB007 (Unknown),9.1604945,0
,39.0641581,node/11037676735,AB007 (Unknown),9.1619748,0
,39.0682041,node/11037676736,AB007 (Unknown),9.163981,0
,39.0875239,node/11037676737,AB007 (Unknown),9.1693964,0
,39.0896188,node/11037676738,AB007 (Unknown),9.1687367,0
,39.1027184,node/11037676739,Aleltu,9.1662839,0
,39.102728,node/11037676740,Aleltu,9.1662626,0
,39.1230371,node/11037676741,AB007 (Unknown),9.164474,0
,39.1388553,node/11037676742,AB007 (Unknown),9.1799165,0
,39.1388713,node/11037676743,AB007 (Unknown),9.1799041,0
,39.1503105,node/11037676744,Aleltu Primary School,9.1943634,0
,39.1541385,node/11037676745,Aleltu,9.1972246,0
,39.1541398,node/11037676746,Aleltu,9.197224,0
,38.6890883,node/11042897810,Sansusi,9.0714467,0
,38.884825,node/11043826061,Bole Arabsa (2),8.984528,0
,38.876972,node/11043826062,Nebu Mikael,9.0020038,0
,38.8779351,node/11043826063,Noah Real Estate,9.0100045,0
,38.7887361,node/11056827967,Akaki Beretaberet,8.8738813,0
,38.7926746,node/11056827968,02 Kebele,8.8634768,0
,38.6982912,node/11056827970,Bercheko Fabrica (Asko),9.0639333,0
,38.8778595,node/11057053412,Aba Kiros Roundabout,9.055687,0
,38.7589682,node/11083569807,Sululta,9.1824886,0
,38.7589772,node/11083569808,Sululta,9.182486,0
,38.7731535,node/11141680766,Kality Total,8.8946653,0
,38.7685475,node/11141680767,Gelan Condominium,8.8802185,0
,38.8021725,node/11141680768,Tulu Dimtu Unisa,8.8548249,0
,38.8092566,node/11141680769,Delta Fuel Station,8.8500677,0
,38.8232319,node/11141680770,Sidama Awash NOC,8.8418262,0
,38.8389713,node/11141680771,Atlas Resort,8.832002,0
,38.8537746,node/11141680772,KOSPI,8.8291949,0
,38.858859,node/11141680773,Gelan,8.8278084,0
,38.8702432,node/11141680774,Gelan Customs,8.8203469,0
,38.904499,node/11141680775,Dukem,8.7923056,0
,38.9044942,node/11141680777,Dukem,8.7922998,0
,38.8975841,node/11141680778,Abysinnia Bank Oda Nebie Branch,8.797776,0
,38.8839407,node/11141680779,Elsewdy,8.815161,0
,38.8707062,node/11141680780,Gelan Customs,8.8198585,0
,38.8596898,node/11141680781,Gelan,8.8270952,0
,38.8540415,node/11141680782,KOSPI,8.8291497,0
,38.8322523,node/11141680783,Adal Bamboo Industrial PLC,8.8377264,0
,38.8041206,node/11141680784,Tulu Dimtu,8.8540591,0
,38.7764645,node/11141680785,Awash Bank (Akaki Kality),8.8834419,0
,38.8231714,node/11141680786,Goro Primary School,8.9972521,0
,38.8299116,node/11141680787,Goro Roundabout,8.9900772,0
,38.8185734,node/11141680788,MWA Plastic Industry,8.917506,0
,38.9415156,node/11141680789,Eldana Pharmacy,8.7626358,0
,38.9438969,node/11141680790,Bishoftu Harar Supermarket,8.7607556,0
,38.956868,node/11141680791,Bishoftu (Pyramid Paradise),8.7518265,0
,38.9619408,node/11141680792,Bishoftu (Eyasu Meda),8.7514113,0
,38.9688962,node/11141680793,Bishoftu,8.7503176,0
,38.9826702,node/11141680794,Bishoftu,8.7477551,0
,38.9919321,node/11141680795,Debre Zeit,8.7420315,0
,38.9919258,node/11141680797,Debre Zeit,8.7420301,0
,38.9870775,node/11141680798,Bishoftu,8.7474961,0
,38.9827942,node/11141680799,Bishoftu,8.7477204,0
,38.9671489,node/11141680800,Eastern Industry Zone,8.750961,0
,38.9621546,node/11141680801,Bishoftu (Eyasu Meda),8.7513994,0
,38.9482453,node/11141680802,Eastern Industry Zone,8.7576518,0
,38.9414383,node/11141680803,Eldana Pharmacy,8.7626829,0
,38.9285515,node/11141680804,Debre Zeit (Toll Exit),8.7735832,0
,38.8193717,node/11141681405,Tulu Dimtu,8.8751908,0
,38.7798968,node/11167384415,Adwa Square,9.0233046,0
,38.8208064,node/11167384416,Gurd-shola,9.0190573,0
,38.8519306,node/11167384417,Saint Georgis,8.9941992,0
,38.8532697,node/11167384418,Summit Condominiums,8.990876,0
,38.7552159,node/11171800354,Ambassador,9.0173538,0
,38.7767317,node/11171800355,Bole Mickael,8.981728,0
,38.7750827,node/11171800356,Wollo Sefer,8.9934713,0
,38.7662677,node/11171800357,Dembel,9.0069848,0
,38.8526426,node/11171800362,Summit Condominiums,8.9907776,0
,38.714981,node/11379983378,Mekanisa Kore,8.9804485,0
,38.7149585,node/11379983380,Mekanisa Kore,8.9806231,0
,38.7524175,node/11380086432,St. George Church,9.0363938,0
,38.7522509,node/11380086433,St. George Church,9.0365862,0
,38.7203593,node/11380281418,Finance,9.0527987,0
,38.6078162,node/11380281419,Kela,9.0614511,0
,38.5673614,node/11380281420,Menagesha,9.0546479,0
,38.5674863,node/11380281422,Menagesha,9.0547685,0
,38.6476681,node/11380281423,Gefersa,9.065022,0
,38.667509,node/11380281424,Firaol Hotel,9.0726158,0
,38.7513787,node/11380367569,Piassa Arada,9.0358692,0
,38.7429072,node/11380367570,Mexico,9.0105951,0
,38.7093424,node/11381041307,4 Menta Adebabay,9.0512894,0
,38.7539352,node/11381108818,58 Mazoria,8.9432456,0
,38.7631449,node/11381108819,Saris,8.9532391,0
,38.7631497,node/11381108821,Saris,8.9531108,0
,38.7540418,node/11381108822,58 Mazoria,8.9431662,0
,38.7417791,node/11381108824,Hana Maryam,8.9281174,0
,38.7582703,node/11381162441,Stadium,9.0124228,0
,38.7583013,node/11381162442,Stadium,9.0123898,0
,38.6968578,node/11381232890,Ayer Tena,8.9840661,0
,38.7853078,node/11381312090,Bole Bulbula,8.948586,0
,38.7853003,node/11381312091,Bole Bulbula,8.9490382,0
,38.7857053,node/11381312092,93 Mazoria,8.9604465,0
,38.7873183,node/11381312094,Key Afer,8.964209,0
,38.7872097,node/11381312095,Key Afer,8.9641941,0
,38.6948372,node/11381593813,Addis Sefer,9.0585451,0
,38.6945044,node/11381593815,Addis Sefer,9.0585728,0
,38.7306299,node/11381593818,Pastor,9.0462366,0
,38.8015549,node/11381711254,Kilonto,8.9024554,0
,38.8016263,node/11381711257,Kilonto,8.902706,0
,38.7634328,node/11381853560,Entoto Mariam,9.0907857,0
,38.7634433,node/11381853561,Entoto Mariam,9.0908026,0
,38.891885,node/11382175105,Bole Arabsa,8.9754501,0
,38.8911339,node/11382175106,Bole Arabsa,8.9730656,0
,38.8268973,node/11382370771,Koye Feche,8.9043842,0
,38.7512405,node/11399912950,18 Kutir Mazoria,9.0649398,0
,38.7517543,node/11399912951,Kechenie Medhanialem,9.0550724,0
,38.7502861,node/11399912952,Chelote,9.0526432,0
,38.7490208,node/11399912953,Semen Hotel,9.0436846,0
,38.7491376,node/11399912954,Abune Petros,9.0352687,0
,38.7465303,node/11399912955,Shola,9.0480538,0
,38.7464273,node/11399912956,Shola,9.0479781,0
,38.75028,node/11399912957,Chelote,9.0528447,0
,38.7517977,node/11399912959,Kechenie Medhanialem,9.0552737,0
,38.7512231,node/11399912960,18 Kutir Mazoria,9.0649792,0
,38.7422058,node/11399912962,Raguel Church,9.0339778,0
,38.7423826,node/11399912963,Raguel Church,9.0341955,0
,38.7511864,node/11399912964,Kechenie,9.0667289,0
,38.7512089,node/11399912966,Kechenie,9.0667294,0
,38.7527875,node/11400026861,Piassa Arada,9.0361205,0
,38.7447806,node/11400026864,Mexico,9.0095042,0
,38.6984211,node/11400026865,Jemmo 3,8.955829,0
,38.734353,node/11400182732,Mebrathile (EEPCo),8.9463761,0
,38.7346414,node/11400182733,Haile Garment,8.9359618,0
,38.7622654,node/11400182734,Gelan Condominium,8.8772646,0
,38.8202946,node/11400182735,Tulu Dimtu,8.8733789,0
,38.8203969,node/11400182737,Tulu Dimtu,8.8728686,0
,38.7845841,node/11400182738,Total,8.8548814,0
,38.7846994,node/11400182739,Total,8.8542188,0
,38.7631559,node/11400182740,Gelan Condominium,8.8762867,0
,38.7627321,node/11400182741,Gelan Condominium,8.8760641,0
,38.7347198,node/11400182742,Haile Garment,8.9394116,0
,38.7502638,node/11400182743,Piassa Arada,9.0357682,0
,38.8009034,node/11400973366,Megenagna,9.021641,0
,38.7641678,node/11400973367,6 Kilo,9.0428467,0
,38.7567444,node/11400973368,Afincho Ber,9.0444476,0
,38.7410424,node/11401004969,Del Ber School,9.0558449,0
,38.737104,node/11401004971,Adisu Gebeya,9.0598253,0
,38.7372594,node/11401004973,Adissu Gebeya,9.0598685,0
,38.7642074,node/11401004974,6 Kilo,9.0429723,0
,38.756873,node/11401004975,Afincho Ber,9.0445837,0
,38.6082099,node/11401143484,Kela,9.0590917,0
,38.7372085,node/11401143486,Autobis Tera,9.0311114,0
,38.6073996,node/11401143487,Kela,9.0595988,0
,38.8019641,node/11401435281,Megenagna,9.0210548,0
,38.7654962,node/11401435283,Mamo,8.9737797,0
,38.7668165,node/11401435284,Yosef,8.970564,0
,38.7663384,node/11401435285,Kadisco,8.9662262,0
,38.7370879,node/11401435286,Haile Garment,8.9369803,0
,38.7356714,node/11401435287,Haile Garment,8.9375484,0
,38.7441726,node/11401435289,Hana Mariam,8.9361579,0
,38.7660138,node/11401435290,Kadisco,8.966209,0
,38.7665593,node/11401435291,Yosef,8.9705358,0
,38.7652031,node/11401435292,Mamo,8.9737884,0
,38.8019957,node/11401435293,Megenagna,9.0207021,0
,38.7453436,node/11401627123,Mexico,9.0111053,0
,38.7477242,node/11401627124,Mexico,9.0125598,0
,38.8042886,node/11402646169,Megenagna,9.020021,0
,38.8904415,node/11402646170,Bole Arabsa,8.9726305,0
,38.7488494,node/11402646171,Mexico,9.0113049,0
,38.7413285,node/11402726845,Raguel Church,9.0340305,0
,38.777195,node/11402726846,Bela Taxy Tera,9.0452512,0
,38.7772134,node/11402726847,Bela Taxy Tera,9.0452439,0
,38.7827126,node/11402726848,Talian Embase,9.0452343,0
,38.7827414,node/11402726849,Talian Embase,9.0452197,0
,38.7852975,node/11402726850,Bela Mazorya,9.0465186,0
,38.7852892,node/11402726851,Bela Mazorya,9.0465349,0
,38.7787355,node/11402726853,Dildiy,9.0450032,0
,38.778694,node/11402726854,Dildiy,9.0449807,0
,38.7687548,node/11402726855,Jan Meda,9.046578,0
,38.7687405,node/11402726856,Jan Meda,9.0466103,0
,38.7984283,node/11403178490,Shola,9.0232448,0
,38.804856,node/11403178491,Megenagna,9.0208713,0
,38.8178514,node/11403178492,Lamberet,9.023693,0
,38.815854,node/11403178494,Lamberet,9.0223101,0
,38.7337986,node/11403178495,Autobis Tera,9.0341051,0
,38.7325492,node/11403178496,Autobis Tera,9.0340474,0
,38.7869305,node/11403413704,Edna Mall,8.9974843,0
,38.794928,node/11403413706,Bole,8.9916854,0
,38.7927404,node/11403413707,Bole,8.9907555,0
,38.8092196,node/11403841171,Taxi Tera,8.9947863,0
,38.7648073,node/11403841172,Arat Kilo,9.0323342,0
,38.8134417,node/11403841173,Gerji,8.9947353,0
,38.8134403,node/11403841174,Gerji,8.9947512,0
,38.6529626,node/11405387337,Alem Gena,8.9232041,0
,38.7446887,node/11405387339,Mexico,9.0119445,0
,38.7371552,node/11405450798,Autobis Tera,9.0296758,0
,38.708026,node/11405450799,Zenebework,8.9887676,0
,38.7087257,node/11405450800,Tabot Maderya,8.9964827,0
,38.7069902,node/11405450801,Weyra Sefer,9.0043151,0
,38.6944806,node/11405450802,Bethel,9.0058306,0
,38.694351,node/11405450804,Bethel,9.0042825,0
,38.7070543,node/11405450806,Weyra Sefer,9.0044243,0
,38.7088343,node/11405450807,Tabot Maderya,8.9964985,0
,38.7195647,node/11405450808,Tor Hailoch,9.0084101,0
,38.7659675,node/11405492950,Dembel City Center,9.0075813,0
,38.7943416,node/11405492951,Bole (Bora Amusement),8.9911572,0
,38.8092405,node/11405492952,Taxi Tera,8.9948042,0
,38.7466743,node/11405492953,Meteorology,9.0192903,0
,38.7475776,node/11405492954,Tikur Anbessa Hospital,9.0217617,0
,38.7377924,node/11405492955,Gojam Berenda,9.0342638,0
,38.7337782,node/11405492956,Autobis Tera,9.0342294,0
,38.7444046,node/11405544615,Lafto,8.9485143,0
,38.7438236,node/11405544617,Lafto,8.9477655,0
,38.8000261,node/11406154070,Megenagna,9.0224156,0
,38.800605,node/11406154071,Megenagna,9.0200472,0
,38.8786021,node/11407727778,Tafo Junction,9.0573986,0
,38.8990522,node/11407727779,Tafo,9.0750675,0
,38.9455979,node/11407727780,Kura Jida,9.0934199,0
,38.9818876,node/11407727781,Ejere,9.1040724,0
,38.9862897,node/11407727782,44 Mazoria,9.1113615,0
,38.6265316,node/11409547051,Sebeta,8.9125499,0
,38.6265555,node/11409547052,Sebeta,8.9125014,0
,38.735159,node/11409931056,Haile Garment,8.9407129,0
,38.7491187,node/11409931057,Chera Medhanilem,8.9034982,0
,38.7525843,node/11409931058,Mesalemia,8.8868562,0
,38.7649397,node/11409931059,Gelan Condominium,8.8779471,0
,38.7656221,node/11409931061,Gelan Condominium,8.8785235,0
,38.6770673,node/11411722070,Repi Highschool,8.9770501,0
,38.6727904,node/11411722072,Ajamba Meskid,8.9796818,0
,38.6686783,node/11411722075,Ajamba,8.9817301,0
,38.6689126,node/11411722076,Ajamba,8.9816108,0
,38.7603148,node/11411760271,Yekatit 12 Hospital,9.0440833,0
,38.7621019,node/11411760272,6 Kilo,9.0435287,0
,38.7525875,node/11411760274,Piassa Arada,9.0381597,0
,38.7737387,node/11411760275,Frensaye Kela,9.0551623,0
,38.7775924,node/11411760277,Ferensay,9.0570997,0
,38.7780891,node/11411760278,Ferensay,9.0571515,0
,38.7517505,node/11411869243,St. George Church,9.0386666,0
,38.7519934,node/11411869244,St. George Church,9.0379325,0
,38.8781238,node/11412470835,Aba Kiros,9.0563934,0
,38.8785245,node/11412470836,Aba Kiros,9.0561257,0
,38.7438042,node/11412523438,Mexico,9.0102485,0
,38.6964762,node/11412604056,Hachalu Squer,8.953828,0
,38.6590111,node/11412604057,Tabelew,8.9274899,0
,38.6548217,node/11412604058,Ubedi Academy,8.9244214,0
,38.6332445,node/11412604060,Mariam Gedam,8.9143691,0
,38.6639491,node/11412604062,Alem Gena,8.9339408,0
,38.7060678,node/11412604063,Chaina Camp,8.9757747,0
,38.7055381,node/11412604064,Chaina Camp,8.9756978,0
,38.6970702,node/11412604066,Ayer Tena,8.9834299,0
,38.7426507,node/11412809612,Teklehaymanot,9.0281995,0
,38.7897549,node/11412861795,Bole Bridge,8.9885421,0
,38.7497526,node/11412861796,Mexico,9.0113665,0
,38.744626,node/11413149803,Mexico,9.0095747,0
,38.8301334,node/11414255395,Goro,8.9924388,0
,38.8390061,node/11414255396,Medhanalem,9.0011322,0
,38.8748324,node/11414255397,Ayat Roundabout,9.0205528,0
,38.8197312,node/11414255399,Tulu Dimtu,8.8753813,0
,38.789865,node/11414368236,Bole Bridge,8.9887101,0
,38.7349946,node/11414368237,Addisu Gebeya,9.0622352,0
,38.7884698,node/11415257682,Bole Bridge,8.9858293,0
,38.7906382,node/11415257683,Bole Bridge,8.9864965,0
,38.7715564,node/11415257684,Kality Meneharia,8.8960841,0
,38.7701278,node/11415257685,Kality Meneharia,8.8976883,0
,38.7590485,node/11416742888,Stadium,9.0103813,0
,38.7592471,node/11416742889,Stadium,9.0102313,0
,38.8189566,node/11416775507,Tulu Dimtu Adebabay,8.874274,0
,38.8029331,node/11416775508,Yeshi Total(2),8.8681549,0
,38.8031262,node/11416775509,Yeshi Total(2),8.8680091,0
,38.799347,node/11416775510,Yeshi Total,8.866627,0
,38.7994194,node/11416775511,Yeshi Total,8.8664508,0
,38.7732914,node/11417018704,Kality Menaheria,8.8942012,0
,38.763558,node/11417018705,Saris,8.9546973,0
,38.763576,node/11417018706,Saris,8.9531887,0
,38.772939,node/11417018707,Kality Menaheria,8.8948891,0
,38.786426,node/11417137083,Meshuwalekia Akaki,8.876602,0
,38.8276353,node/11417137085,Koye Feche,8.9033054,0
,38.8299068,node/11417137086,Nifas Silk,8.8940819,0
,38.78682,node/11417137087,Meshualekia,8.876212,0
,38.8135431,node/11417137088,Koye Adebabay,8.8990782,0
,38.7993025,node/11417137089,Kilinto,8.8898875,0
,38.8000603,node/11417137090,Kilinto,8.8900996,0
,38.8034802,node/11417137091,Astu,8.8931042,0
,38.8043302,node/11417137092,Astu,8.89332,0
,38.8144979,node/11417137093,Koye Adebabay,8.899173,0
,38.7863072,node/11417137094,Meshuwalekia Akaki,8.876212,0
,38.7674288,node/11417227013,Addis Sefer,8.9602578,0
,38.7989045,node/11417650902,Yeshi Total,8.8668617,0
,38.8007164,node/11417650903,Yeshi Total,8.8621909,0
,38.7769702,node/11417693225,Ferensay,9.0571149,0
,38.7095163,node/11417915838,Weserbi Realestate,9.1051223,0
,38.7146984,node/11417915839,Classy Water,9.1095427,0
,38.7538584,node/11417915840,Ashewa,9.1449034,0
,38.7180322,node/11417915842,10 Kilo,9.0932407,0
,38.7229982,node/11417915843,Entoto Kela,9.0843694,0
,38.7287537,node/11417915844,Arsema Tsebel,9.0812813,0
,38.7287841,node/11417915845,Arsema Tsebel,9.0813086,0
,38.7352493,node/11417915846,Addisu Gebeya,9.062587,0
,38.7350113,node/11417915847,Addisu Gebeya,9.0630004,0
,38.8774561,node/11505488524,Tafo Square,9.0569623,0
,38.8775699,node/11505488525,Tafo Square,9.0570873,0
,38.7529985,node/11505488527,Piassa Arada,9.037989,0
,38.7528083,node/11505488529,Piassa Arada,9.03787,0
,38.7994273,node/11506725579,Megenagna,9.0224897,0
,38.7720348,node/11506737713,Kidane Mihret,9.0773765,0
,38.7720644,node/11506737714,Kidane Mihret,9.0773642,0
,38.6725839,node/11519562283,Anfo,9.0068398,0
,38.6820897,node/11519562284,Wereda 07,9.0062933,0
,38.7050534,node/11519562285,Mewcha,9.0140509,0
,38.6692468,node/11519562287,Alem Bank Silase,9.007032,0
,38.6688957,node/11519562288,Alem Bank Silase,9.00692,0
,38.8290427,node/11521311352,Yerer Goro,8.9916033,0
,38.6478052,node/11524560442,Dire Sololiya,9.065191,0
,38.6476923,node/11524560443,Dire Sololiya,9.0651446,0
,38.736741,node/11524560444,Merkato,9.0309506,0
,38.606626,node/11524560445,Kela Yetebaberut,9.0602156,0
,38.6646996,node/11524560446,Burayu,9.0707429,0
,38.7374236,node/11524560448,Merkato,9.0311411,0
,38.6820068,node/11524560449,Keta,9.072005,0
,38.6653547,node/11524560450,Burayu,9.068736,0
,38.6555148,node/11524560451,Tsedenya Mariam,9.0664526,0
,38.6374572,node/11524560452,Gefersa,9.0727354,0
,38.5920678,node/11524560453,Cheshire Ethiopia,9.0712348,0
,38.5882355,node/11524560454,NOC Fuel Station,9.0692808,0
,38.5767913,node/11524560455,Kolobo,9.0618734,0
,38.5284718,node/11524560456,Sademo,9.0670068,0
,38.5161091,node/11524560457,Blu Water Factory,9.0716265,0
,38.4916236,node/11524560458,Holeta 44,9.0658101,0
,38.4743429,node/11524560459,Meskelegna (Condominiums),9.0602811,0
,38.4445835,node/11524560460,Ch'Iri,9.0540468,0
,38.4062728,node/11524560461,Addis Alem Total,9.0465485,0
,38.4029724,node/11524560462,Addis Alem Coca,9.0466782,0
,38.3898659,node/11524560463,Addis Alem,9.0472633,0
,38.3898682,node/11524560465,Addis Alem,9.0473056,0
,38.3994697,node/11524560466,Maremia Mazoria,9.0468289,0
,38.4029724,node/11524560467,Addis Alem Coca,9.0467072,0
,38.4096647,node/11524560468,Addis Alem Total,9.0465062,0
,38.4852417,node/11524582069,Meskelegna,9.0644519,0
,38.49859,node/11524582070,Surqa Harbu,9.0705162,0
,38.5141754,node/11524582071,Blu Water Factory,9.0724221,0
,38.5234433,node/11524582072,Sademo 2,9.0687137,0
,38.5713031,node/11524582073,Kolobo,9.0566486,0
,38.578721,node/11524582074,Menagesha,9.0628041,0
,38.6071096,node/11524582075,Kela,9.0607136,0
,38.7612676,node/11528917462,6 Kilo,9.0447742,0
,38.6783381,node/11531644819,Keta Medhanialem,9.0734859,0
,38.6902655,node/11531644820,Gebriel (Sansusi),9.0668695,0
,38.6782443,node/11531644821,Keta Medhanialem,9.0733926,0
,38.6816403,node/11531644822,Andnet Hotel,9.0707592,0
,38.7756345,node/11539916206,Washington Hospital,8.9872884,0
,38.7635092,node/11539916207,ICT Park,9.0220273,0
,38.7729998,node/11539916209,Bole Mikael,8.9842837,0
,38.5983484,node/11543153086,Gift Guesthouse,9.0704005,0
,38.5906587,node/11543153087,Menagesha,9.0707372,0
,38.5801349,node/11543153088,Gebeya,9.0635263,0
,38.5735414,node/11543153089,Kolobo 1st School,9.0585209,0
,38.5715289,node/11543153090,Kolobo,9.0565739,0
,38.5735282,node/11543153091,Kolobo 1st School,9.0585244,0
,38.580325,node/11543153092,Gebeya,9.0637083,0
,38.5908279,node/11543153093,Menagesha,9.0708154,0
,38.5984436,node/11543153094,Gift Guesthouse,9.0703673,0
,38.4979468,node/11543153095,Holeta,9.0675663,0
,38.7382571,node/11553349370,Merkato,9.0298593,0
,38.7296734,node/11553349371,Coca Cola,9.0159812,0
,38.6771968,node/11553349372,Repi Highschool,8.976346,0
,38.6632342,node/11553349373,Kentery,8.9328633,0
,38.6369733,node/11553349374,Gojeb Hotel,8.915529,0
,38.5991044,node/11553349375,Meta Abo,8.9043933,0
,38.5869829,node/11553349376,Dima,8.8976679,0
,38.5355227,node/11553349377,Kela,8.8686477,0
,38.507326,node/11553349378,Mezoria,8.8478529,0
,38.5016975,node/11553349379,Tefki,8.8480625,0
,38.4960157,node/11553349380,Tefki Tele,8.8476416,0
,38.4145921,node/11553349381,Unity Hotel,8.8482229,0
,38.3678579,node/11553349382,Teji,8.8286146,0
,38.4158157,node/11553349385,Unity Hotel,8.8480119,0
,38.4982253,node/11553349386,Tefki Tele,8.848626,0
,38.5016989,node/11553349387,Tefki,8.8480826,0
,38.5074176,node/11553349388,Mezoria,8.8478997,0
,38.5878327,node/11553349389,Dima,8.8982391,0
,38.5984626,node/11553349390,Meta Abo,8.9040471,0
,38.6374119,node/11553349391,Gojeb Hotel,8.9154322,0
,38.6631526,node/11553349392,Kentery,8.9329726,0
,38.6771964,node/11553349393,Repi Highschool,8.9763605,0
,38.7382871,node/11553349394,Merkato,9.029871,0
